{
    "obj": [
        {
            "timestp": "2022-01-16",
            "code2": "ID",
            "rank": 1,
            "weights": 0.16936,
            "name": "Indonesia",
            "lat": -0.789275,
            "lng": 113.921327
        },
        {
            "timestp": "2022-01-16",
            "code2": "TH",
            "rank": 2,
            "weights": 0.166277,
            "name": "Thailand",
            "lat": 15.870032,
            "lng": 100.992541
        },
        {
            "timestp": "2022-01-16",
            "code2": "VN",
            "rank": 3,
            "weights": 0.13704,
            "name": "Vietnam",
            "lat": 14.058324,
            "lng": 108.277199
        },
        {
            "timestp": "2022-01-16",
            "code2": "PH",
            "rank": 4,
            "weights": 0.130236,
            "name": "Philippines",
            "lat": 12.879721,
            "lng": 121.774017
        },
        {
            "timestp": "2022-01-16",
            "code2": "JP",
            "rank": 5,
            "weights": 0.049649,
            "name": "Japan",
            "lat": 36.204824,
            "lng": 138.252924
        },
        {
            "timestp": "2022-01-16",
            "code2": "MY",
            "rank": 6,
            "weights": 0.045716,
            "name": "Malaysia",
            "lat": 4.210484,
            "lng": 101.975766
        },
        {
            "timestp": "2022-01-16",
            "code2": "BR",
            "rank": 7,
            "weights": 0.026685,
            "name": "Brazil",
            "lat": -14.235004,
            "lng": -51.92528
        },
        {
            "timestp": "2022-01-16",
            "code2": "US",
            "rank": 8,
            "weights": 0.025516,
            "name": "United States",
            "lat": 37.09024,
            "lng": -95.712891
        },
        {
            "timestp": "2022-01-16",
            "code2": "KH",
            "rank": 9,
            "weights": 0.018924,
            "name": "Cambodia",
            "lat": 12.565679,
            "lng": 104.990963
        },
        {
            "timestp": "2022-01-16",
            "code2": "KR",
            "rank": 10,
            "weights": 0.018393,
            "name": "South Korea",
            "lat": 35.907757,
            "lng": 127.766922
        },
        {
            "timestp": "2022-01-16",
            "code2": "TW",
            "rank": 11,
            "weights": 0.017542,
            "name": "Taiwan",
            "lat": 23.69781,
            "lng": 120.960515
        },
        {
            "timestp": "2022-01-16",
            "code2": "MX",
            "rank": 12,
            "weights": 0.014778,
            "name": "Mexico",
            "lat": 23.634501,
            "lng": -102.552784
        },
        {
            "timestp": "2022-01-16",
            "code2": "SA",
            "rank": 13,
            "weights": 0.011801,
            "name": "Saudi Arabia",
            "lat": 23.885942,
            "lng": 45.079162
        },
        {
            "timestp": "2022-01-08",
            "code2": "TH",
            "rank": 1,
            "weights": 0.166508,
            "name": "Thailand",
            "lat": 15.870032,
            "lng": 100.992541
        },
        {
            "timestp": "2022-01-08",
            "code2": "ID",
            "rank": 2,
            "weights": 0.166402,
            "name": "Indonesia",
            "lat": -0.789275,
            "lng": 113.921327
        },
        {
            "timestp": "2022-01-08",
            "code2": "VN",
            "rank": 3,
            "weights": 0.142448,
            "name": "Vietnam",
            "lat": 14.058324,
            "lng": 108.277199
        },
        {
            "timestp": "2022-01-08",
            "code2": "PH",
            "rank": 4,
            "weights": 0.135983,
            "name": "Philippines",
            "lat": 12.879721,
            "lng": 121.774017
        },
        {
            "timestp": "2022-01-08",
            "code2": "MY",
            "rank": 5,
            "weights": 0.047271,
            "name": "Malaysia",
            "lat": 4.210484,
            "lng": 101.975766
        },
        {
            "timestp": "2022-01-08",
            "code2": "JP",
            "rank": 6,
            "weights": 0.039216,
            "name": "Japan",
            "lat": 36.204824,
            "lng": 138.252924
        },
        {
            "timestp": "2022-01-08",
            "code2": "BR",
            "rank": 7,
            "weights": 0.025967,
            "name": "Brazil",
            "lat": -14.235004,
            "lng": -51.92528
        },
        {
            "timestp": "2022-01-08",
            "code2": "US",
            "rank": 8,
            "weights": 0.025437,
            "name": "United States",
            "lat": 37.09024,
            "lng": -95.712891
        },
        {
            "timestp": "2022-01-08",
            "code2": "KH",
            "rank": 9,
            "weights": 0.021304,
            "name": "Cambodia",
            "lat": 12.565679,
            "lng": 104.990963
        },
        {
            "timestp": "2022-01-08",
            "code2": "TW",
            "rank": 10,
            "weights": 0.018866,
            "name": "Taiwan",
            "lat": 23.69781,
            "lng": 120.960515
        },
        {
            "timestp": "2022-01-08",
            "code2": "KR",
            "rank": 11,
            "weights": 0.018124,
            "name": "South Korea",
            "lat": 35.907757,
            "lng": 127.766922
        },
        {
            "timestp": "2022-01-08",
            "code2": "MX",
            "rank": 12,
            "weights": 0.017382,
            "name": "Mexico",
            "lat": 23.634501,
            "lng": -102.552784
        },
        {
            "timestp": "2022-01-08",
            "code2": "MM",
            "rank": 13,
            "weights": 0.010175,
            "name": "Myanmar",
            "lat": 21.913965,
            "lng": 95.956223
        },
        {
            "timestp": "2022-01-06",
            "code2": "TH",
            "rank": 1,
            "weights": 0.173386,
            "name": "Thailand",
            "lat": 15.870032,
            "lng": 100.992541
        },
        {
            "timestp": "2022-01-06",
            "code2": "ID",
            "rank": 2,
            "weights": 0.165727,
            "name": "Indonesia",
            "lat": -0.789275,
            "lng": 113.921327
        },
        {
            "timestp": "2022-01-06",
            "code2": "VN",
            "rank": 3,
            "weights": 0.13839,
            "name": "Vietnam",
            "lat": 14.058324,
            "lng": 108.277199
        },
        {
            "timestp": "2022-01-06",
            "code2": "PH",
            "rank": 4,
            "weights": 0.124987,
            "name": "Philippines",
            "lat": 12.879721,
            "lng": 121.774017
        },
        {
            "timestp": "2022-01-06",
            "code2": "JP",
            "rank": 5,
            "weights": 0.047655,
            "name": "Japan",
            "lat": 36.204824,
            "lng": 138.252924
        },
        {
            "timestp": "2022-01-06",
            "code2": "MY",
            "rank": 6,
            "weights": 0.044782,
            "name": "Malaysia",
            "lat": 4.210484,
            "lng": 101.975766
        },
        {
            "timestp": "2022-01-06",
            "code2": "US",
            "rank": 7,
            "weights": 0.026274,
            "name": "United States",
            "lat": 37.09024,
            "lng": -95.712891
        },
        {
            "timestp": "2022-01-06",
            "code2": "KH",
            "rank": 8,
            "weights": 0.022976,
            "name": "Cambodia",
            "lat": 12.565679,
            "lng": 104.990963
        },
        {
            "timestp": "2022-01-06",
            "code2": "KR",
            "rank": 9,
            "weights": 0.020742,
            "name": "South Korea",
            "lat": 35.907757,
            "lng": 127.766922
        },
        {
            "timestp": "2022-01-06",
            "code2": "BR",
            "rank": 10,
            "weights": 0.02053,
            "name": "Brazil",
            "lat": -14.235004,
            "lng": -51.92528
        },
        {
            "timestp": "2022-01-06",
            "code2": "TW",
            "rank": 11,
            "weights": 0.020104,
            "name": "Taiwan",
            "lat": 23.69781,
            "lng": 120.960515
        },
        {
            "timestp": "2022-01-06",
            "code2": "MX",
            "rank": 12,
            "weights": 0.015743,
            "name": "Mexico",
            "lat": 23.634501,
            "lng": -102.552784
        },
        {
            "timestp": "2022-01-06",
            "code2": "MM",
            "rank": 13,
            "weights": 0.012445,
            "name": "Myanmar",
            "lat": 21.913965,
            "lng": 95.956223
        },
        {
            "timestp": "2022-01-02",
            "code2": "ID",
            "rank": 1,
            "weights": 0.170535,
            "name": "Indonesia",
            "lat": -0.789275,
            "lng": 113.921327
        },
        {
            "timestp": "2022-01-02",
            "code2": "TH",
            "rank": 2,
            "weights": 0.167674,
            "name": "Thailand",
            "lat": 15.870032,
            "lng": 100.992541
        },
        {
            "timestp": "2022-01-02",
            "code2": "VN",
            "rank": 3,
            "weights": 0.135453,
            "name": "Vietnam",
            "lat": 14.058324,
            "lng": 108.277199
        },
        {
            "timestp": "2022-01-02",
            "code2": "PH",
            "rank": 4,
            "weights": 0.126232,
            "name": "Philippines",
            "lat": 12.879721,
            "lng": 121.774017
        },
        {
            "timestp": "2022-01-02",
            "code2": "JP",
            "rank": 5,
            "weights": 0.048119,
            "name": "Japan",
            "lat": 36.204824,
            "lng": 138.252924
        },
        {
            "timestp": "2022-01-02",
            "code2": "MY",
            "rank": 6,
            "weights": 0.045999,
            "name": "Malaysia",
            "lat": 4.210484,
            "lng": 101.975766
        },
        {
            "timestp": "2022-01-02",
            "code2": "US",
            "rank": 7,
            "weights": 0.026391,
            "name": "United States",
            "lat": 37.09024,
            "lng": -95.712891
        },
        {
            "timestp": "2022-01-02",
            "code2": "BR",
            "rank": 8,
            "weights": 0.023317,
            "name": "Brazil",
            "lat": -14.235004,
            "lng": -51.92528
        },
        {
            "timestp": "2022-01-02",
            "code2": "KH",
            "rank": 9,
            "weights": 0.020668,
            "name": "Cambodia",
            "lat": 12.565679,
            "lng": 104.990963
        },
        {
            "timestp": "2022-01-02",
            "code2": "KR",
            "rank": 10,
            "weights": 0.019608,
            "name": "South Korea",
            "lat": 35.907757,
            "lng": 127.766922
        },
        {
            "timestp": "2022-01-02",
            "code2": "TW",
            "rank": 11,
            "weights": 0.018866,
            "name": "Taiwan",
            "lat": 23.69781,
            "lng": 120.960515
        }
    ]
}